name,addr,year,units,sizeMin,sizeMax,rentMin,rentMax,salePsfMin,salePsfMax,lat,lng,developer,iproperty_url,homepage_url,status,name_ja,brand_score,blocks,floors,tenure,premium_private_lift,premium_concierge,premium_low_density,premium_pool,premium_sky_lounge,premium_ev_charging,premium_score
10 Mont Kiara (MK10),Jalan Kiara 1 Mont Kiara 50480 KL,2009,332,3478,7500,7000,20000,850,1369,3.17009,101.65609,UEM Sunrise,https://www.iproperty.com.my/building/10-mont-kiara-mk-10-pty_64034/,,completed,テン・モントキアラ (MK10),80,2,43,FH,1,1,2,1,0,0,12
11 Mont Kiara (MK11),Jalan Kiara 1 Mont Kiara 50480 KL,2011,339,2707,6725,12000,22000,813,1546,3.16897,101.65511,UEM Sunrise,https://www.iproperty.com.my/building/11-mont-kiara-mk-11-pty_64145/,,completed,イレブン・モントキアラ (MK11),80,5,43,FH,1,0,3,1,1,0,12
28 Mont Kiara (MK28),Jalan Kiara Mont Kiara 50480 KL,2012,460,2535,6465,9000,15000,750,950,3.17339,101.65296,UEM Sunrise,https://www.iproperty.com.my/building/28-mont-kiara-mk-28-pty_62139/,https://www.uemsunrise.com/property/region/greater-kuala-lumpur/project/28-montkiara,completed,トゥエンティエイト・モントキアラ (MK28),80,2,40,FH,1,1,1,1,1,1,13
Agile Mont Kiara,Jalan Duta Kiara Dutamas 50480 KL,2020,813,1215,5090,5000,15000,950,1100,3.17192,101.66176,Agile,https://www.iproperty.com.my/building/agile-mont-kiara-pty_63952/,https://agileinternational.com.my/mont-kiara/,completed,アジャイル・モントキアラ,40,11,56,LH,0,0,0,0,1,0,1
Allevia Mont Kiara,Jalan Kiara 4 Mont Kiara 50480 KL,2025,294,1703,2634,10000,20000,800,1100,3.17238,101.65057,UEM Sunrise,https://www.iproperty.com.my/building/allevia-pty_67701/,https://www.uemsunrise.com/property/region/greater-kuala-lumpur/project/allevia,completed,アレヴィア・モントキアラ,80,2,45,FH,0,1,3,1,1,0,7
Almaspuri Mont Kiara,Jalan 1/70C off Jalan Kiara 50480 KL,2003,132,1545,3500,4500,6000,600,700,3.16971,101.65209,Other,https://www.iproperty.com.my/building/almaspuri-pty_65136/,,completed,アルマスプリ・モントキアラ,30,1,12,FH,0,0,0,0,0,0,0
Aman Mont Kiara,Jalan Kiara 2 Mont Kiara 50480 KL,2005,345,1600,4300,6000,10000,650,750,3.17271,101.65540,UEM Sunrise,https://www.iproperty.com.my/building/mont-kiara-aman-pty_60863/,,completed,アマン・モントキアラ,80,2,32,FH,0,0,1,1,0,0,2
Angkupuri Mont Kiara,20 Jalan 1/70C Mont Kiara 50480 KL,1998,210,1249,3100,3000,4500,500,550,3.17028,101.65215,Other,https://www.iproperty.com.my/building/angkupuri-condominium-pty_61656/,,completed,アンクプリ・モントキアラ,30,3,39,FH,0,0,0,0,0,0,0
Arcoris Mont Kiara,10 Jalan Kiara 4 Mont Kiara 50480 KL,2016,331,496,2305,3000,15000,950,1300,3.16758,101.65176,UEM Sunrise,https://www.iproperty.com.my/building/arcoris-residences-pty_60521/,http://www.arcorismontkiara.com/,completed,アルコリス・モントキアラ,80,2,35,FH,0,1,0,1,1,1,5
Arte Mont Kiara,Jalan Sultan Haji Ahmad Shah 50480 KL,2020,1634,422,1142,2000,7000,900,1000,3.17613,101.66497,Arte Corp,https://www.iproperty.com.my/building/arte-mont-kiara-pty_63148/,https://www.artecorp.com.my/development-item/arte-mont-kiara/,completed,アルテ・モントキアラ,35,3,52,LH,0,0,0,0,1,0,1
Astana Mont Kiara,Jalan Kiara 2 Mont Kiara 50480 KL,2000,281,1241,2999,4000,6500,600,700,3.17140,101.65431,UEM Sunrise,https://www.iproperty.com.my/building/mont-kiara-astana-pty_66282/,,completed,アスタナ・モントキアラ,80,2,20,FH,0,0,0,0,0,0,0
Aston Kiara 3,27 Jalan Kiara 3 Mont Kiara 51200 KL,2011,160,1517,1598,2500,3000,350,400,3.17277,101.65072,Other,https://www.iproperty.com.my/building/aston-kiara-3-pty_65126/,,completed,アストン・キアラ 3,30,1,25,FH,0,0,0,0,0,0,0
Astrea Mont Kiara,Jalan Kiara 5 Mont Kiara 50480 KL,2023,240,1364,1859,5000,9000,730,1000,3.16998,101.64669,UEM Sunrise,https://www.iproperty.com.my/building/residensi-astrea-pty_62547/,https://www.uemsunrise.com/property/region/greater-kuala-lumpur/project/astrea,completed,アストレア・モントキアラ,80,1,37,FH,0,0,0,1,1,0,2
Banyan Mont Kiara,Jalan Kiara 2 Mont Kiara 50480 KL,2007,147,1838,2318,6000,10000,650,750,3.17236,101.65228,UEM Sunrise,https://www.iproperty.com.my/building/mont-kiara-banyan-pty_61692/,,completed,バニヤン・モントキアラ,80,3,18,FH,0,0,0,0,0,0,0
Bayu Mont Kiara,Jalan Kiara 2 Mont Kiara 50480 KL,2002,394,798,1280,2200,4000,600,700,3.17279,101.65399,UEM Sunrise,https://www.iproperty.com.my/building/mont-kiara-bayu-pty_61471/,,completed,バユ・モントキアラ,80,3,20,FH,0,0,0,0,0,0,0
Casa Kiara 1,Jalan Kiara 3 Mont Kiara 50480 KL,2006,223,1235,1268,3000,4000,500,550,3.16891,101.64813,Other,https://www.iproperty.com.my/building/casa-kiara-pty_64661/,,completed,カサ・キアラ 1,30,2,17,FH,0,0,0,0,0,0,0
Casa Kiara 2,Jalan Kiara 5 Mont Kiara 50480 KL,2009,206,1375,1574,3500,4500,600,700,3.16891,101.64813,Sunway Property,https://www.iproperty.com.my/building/casa-kiara-ii-pty_63150/,,completed,カサ・キアラ 2,80,2,22,FH,0,0,0,0,0,0,0
Ceriaan Kiara,Jalan Kiara 3 Mont Kiara 50480 KL,2009,238,1700,2200,4000,6000,500,550,3.16936,101.65018,Other,https://www.iproperty.com.my/building/ceriaan-kiara-pty_64397/,,completed,チェリアン・キアラ,30,3,29,FH,0,0,0,0,0,0,0
Damai Mont Kiara,Jalan Kiara 2 Mont Kiara 50480 KL,2004,230,2272,8727,5500,16000,772,1000,3.17111,101.65617,UEM Sunrise,https://www.iproperty.com.my/building/mont-kiara-damai-resort-condominium-pty_62122/,,completed,ダマイ・モントキアラ,80,1,43,FH,0,0,3,1,0,0,4
Flora Murni Mont Kiara,Jalan Kiara 3 Mont Kiara 50480 KL,2006,71,1615,4424,5500,20000,550,950,3.16607,101.64952,Tian Global,https://www.iproperty.com.my/building/flora-murni-pty_61504/,,completed,フローラ・ムルニ・モントキアラ,30,1,26,FH,0,0,3,1,0,0,4
Gateway Kiaramas,No 1 Jalan Desa Kiara Mont Kiara 50480 KL,2010,168,743,3563,2500,5000,550,850,3.16584,101.64584,Asia Quest,https://www.iproperty.com.my/building/gateway-kiaramas-pty_62913/,,completed,ゲートウェイ・キアラマス,55,2,37,FH,0,0,1,0,1,0,2
Hartamas Regency 1,Persiaran Dutamas Desa Sri Hartamas 50480 KL,2005,298,1181,2935,3000,6000,550,600,3.17428,101.66312,Other,https://www.iproperty.com.my/building/hartamas-regency-1-pty_65010/,,completed,ハルタマス・リージェンシー 1,30,3,18,FH,0,0,0,0,0,0,0
Hartamas Regency 2,Persiaran Dutamas Desa Sri Hartamas 50480 KL,2007,210,1315,3380,3000,6000,550,600,3.17237,101.66312,Other,https://www.iproperty.com.my/building/hartamas-regency-2-pty_62800/,,completed,ハルタマス・リージェンシー 2,30,2,13,FH,0,0,0,0,0,0,0
Hijauan Kiara,Jalan Kiara 5 Mont Kiara 50480 KL,2008,188,2090,3732,4910,10000,548,724,3.16664,101.64580,Bukit Kiara Properties,https://www.iproperty.com.my/building/hijauan-kiara-pty_64033/,https://www.bukitkiara.com/projects-hk,completed,ヒジャウアン・キアラ,80,7,29,FH,1,0,3,1,0,0,11
Icon Residence,No 20 Persiaran Dutamas 50480 KL,2014,260,673,4719,3000,12000,800,900,3.17350,101.66450,Mah Sing,https://www.iproperty.com.my/building/icon-residence-pty_63117/,https://www.mahsing.com.my/projects/icon-residence/,completed,アイコン・レジデンス,60,3,26,FH,0,0,2,0,1,0,3
Inspirasi Mont Kiara,Jalan Kiara 4 Mont Kiara 50480 KL,2022,640,940,1015,3000,4500,750,850,3.17177,101.65053,UEM Sunrise,https://www.iproperty.com.my/building/inspirasi-pty_62840/,,completed,インスピラシ・モントキアラ,80,2,46,LH,0,0,0,0,0,0,0
Kami Mont Kiara,Jalan Duta Kiara Dutamas 50480 KL,2022,168,840,1604,4000,10000,1100,1200,3.17413,101.65836,Ireka,https://www.iproperty.com.my/building/kami-pty_65502/,https://kamimontkiara.com/,completed,カミ・モントキアラ,55,1,19,FH,0,0,0,1,0,0,1
i-Zen Kiara 1,1 Jalan Kiara Mont Kiara 50480 KL,2008,302,805,1407,2500,5500,700,750,3.16597,101.65476,Ireka,https://www.iproperty.com.my/building/i-zen-kiara-1-pty_62843/,,completed,アイゼン・キアラ 1,55,1,35,FH,0,0,0,0,0,0,0
i-Zen Kiara 2,1 Jalan Kiara Mont Kiara 50480 KL,2006,238,725,1701,2500,6500,600,650,3.16620,101.65500,Ireka,https://www.iproperty.com.my/building/i-zen-kiara-2-pty_61817/,,completed,アイゼン・キアラ 2,55,1,28,FH,0,1,0,0,0,0,2
Kiara 1888,No 17 Jalan Kiara 3 Mont Kiara 50480 KL,2008,182,1238,3982,3500,9000,550,600,3.16993,101.65015,Bolton,https://www.iproperty.com.my/building/kiara-1888-pty_65691/,,completed,キアラ 1888,55,1,28,FH,1,0,1,0,0,0,8
Kiara 9 Residency,22 Jalan Kiara 3 Mont Kiara 50480 KL,2011,192,1661,2691,5000,15000,700,800,3.16994,101.64827,Mitrajaya,https://www.iproperty.com.my/building/kiara-9-residency-pty_64238/,,completed,キアラ 9 レジデンシー,50,1,16,FH,0,0,0,0,0,0,0
Kiara Designer Suites,Jalan Kiara 3 Mont Kiara 50480 KL,2007,324,1088,1428,3000,4500,600,650,3.16839,101.64752,UEM Sunrise,https://www.iproperty.com.my/building/kiara-designer-suites-pty_65763/,,completed,キアラ・デザイナー・スイーツ,80,1,29,FH,0,0,0,0,0,0,0
Kiaramas Ayuria,9 Jalan Desa Kiara Mont Kiara 50480 KL,2008,480,1605,4000,4000,8000,600,650,3.16770,101.64227,Asia Quest,https://www.iproperty.com.my/building/kiaramas-ayuria-pty_64373/,https://www.ayuria.com/,completed,キアラマス・アユリア,55,3,35,FH,0,0,2,0,0,0,2
Kiaramas Cendana,10 Jalan Desa Kiara Mont Kiara 50480 KL,2006,184,1659,4830,4500,8000,650,750,3.16668,101.64208,Asia Quest,https://www.iproperty.com.my/building/kiaramas-cendana-pty_65243/,,completed,キアラマス・チェンダナ,55,1,29,FH,0,0,0,0,0,0,0
Kiaramas Danai,Jalan Desa Kiara Mont Kiara 50480 KL,2013,274,2025,2498,6500,10000,800,900,3.16607,101.64198,Asia Quest,https://www.iproperty.com.my/building/kiaramas-danai-pty_60991/,,completed,キアラマス・ダナイ,55,2,34,FH,1,0,2,1,0,0,10
Kiaramas Sutera,Jalan Desa Kiara Mont Kiara 50480 KL,2004,315,1347,4100,3000,7000,550,600,3.16769,101.64386,Asia Quest,https://www.iproperty.com.my/building/kiaramas-sutera-pty_66265/,,completed,キアラマス・スートラ,55,1,29,FH,0,0,0,0,0,0,0
Kiaraville,Changkat Duta Kiara Mont Kiara 50480 KL,2008,188,1593,3953,6000,12000,666,864,3.17291,101.65978,Asia Quest,https://www.iproperty.com.my/building/kiaraville-pty_63889/,,completed,キアラヴィル,55,6,18,FH,0,0,0,0,0,0,0
La Grande Mont Kiara,Jalan Duta Kiara Mont Kiara 50480 KL,2005,298,1961,2047,4000,6000,550,600,3.17481,101.65805,UEM Sunrise,https://www.iproperty.com.my/building/la-grande-kiara-pty_65232/,,completed,ラ・グランデ・モントキアラ,80,2,20,FH,0,0,0,0,0,0,0
Laman Suria Mont Kiara,Jalan Kiara 3 Mont Kiara 50480 KL,2004,202,931,2147,2500,5000,600,650,3.16881,101.65005,Other,https://www.iproperty.com.my/building/laman-suria-pty_62704/,,completed,ラマン・スリア・モントキアラ,30,1,18,FH,0,0,0,0,0,0,0
Lanai Kiara,No 1 Jalan Kiara 3 Mont Kiara 50480 KL,1998,181,1400,4300,3000,6000,400,450,3.16551,101.64942,Other,https://www.iproperty.com.my/building/lanai-kiara-pty_62630/,,completed,ラナイ・キアラ,30,1,21,FH,0,0,0,0,0,0,0
Lumina Kiara,Jalan Duta Kiara Mont Kiara 50480 KL,2010,104,1448,3152,4500,15000,600,700,3.17482,101.65667,ECH Development,https://www.iproperty.com.my/building/lumina-kiara-pty_66036/,,completed,ルミナ・キアラ,80,2,29,FH,0,0,3,1,1,0,5
Meridin Mont Kiara,Jalan Duta Kiara Mont Kiara 50480 KL,2009,228,1787,4487,4500,8000,550,600,3.17445,101.65328,UEM Sunrise,https://www.iproperty.com.my/building/mont-kiara-meridin-pty_64388/,,completed,メリディン・モントキアラ,80,1,31,FH,0,0,1,1,0,0,2
OOAK Kiara 163,Jalan Kiara Mont Kiara 50480 KL,2022,336,696,1016,3000,9000,960,1300,3.16700,101.65200,YNH Property,https://www.iproperty.com.my/building/ooak-serviced-apartments-kiara-163-pty_61416/,http://ooak.kiara163.com.my/,completed,ウーク・キアラ 163,30,2,46,FH,0,1,0,1,0,0,3
Palma Mont Kiara,Jalan 1/70C Mont Kiara 50480 KL,1994,402,1208,1390,4000,6000,700,750,3.16775,101.65396,UEM Sunrise,https://www.iproperty.com.my/building/mont-kiara-palma-pty_64177/,,completed,パルマ・モントキアラ,80,2,36,FH,0,0,0,0,0,0,0
Pavilion Hilltop,Changkat Duta Kiara Mont Kiara 50480 KL,2018,621,1200,3671,5000,20000,934,1836,3.16947,101.65350,Pavilion Group,https://www.iproperty.com.my/building/pavilion-hilltop-pty_65181/,https://1pavilion.com/index.php/en/pavilion-hilltop/,completed,パビリオン・ヒルトップ,100,3,31,FH,1,1,3,1,1,0,14
Pelangi Mont Kiara,Jalan Kiara 1 Mont Kiara 50480 KL,1994,302,1208,1390,3500,6000,600,650,3.16877,101.65341,UEM Sunrise,https://www.iproperty.com.my/building/mont-kiara-pelangi-pty_62237/,,completed,プランギ・モントキアラ,80,2,27,FH,0,0,0,0,0,0,0
Pentamont Mont Kiara,Jalan Kiara 5 Mont Kiara 50480 KL,2022,330,1379,4115,5000,15000,900,1100,3.17069,101.64829,Trinity Group,https://www.iproperty.com.my/building/trinity-pentamont-pty_62221/,https://www.pentamont.com.my/,completed,ペンタモント・モントキアラ,50,1,41,FH,0,1,1,1,0,0,4
Pines Mont Kiara,Jalan Kiara 1 Mont Kiara 50480 KL,1993,508,1208,1428,3000,6000,600,650,3.16689,101.65438,UEM Sunrise,https://www.iproperty.com.my/building/mont-kiara-pines-pty_64060/,,completed,パインズ・モントキアラ,80,3,35,FH,0,0,0,0,0,0,0
Residensi 22,Jalan Kiara 3 Mont Kiara 50480 KL,2017,534,1878,3163,6500,15000,961,1115,3.16796,101.64991,UEM Sunrise,https://www.iproperty.com.my/building/residensi-22-pty_60717/,https://www.residensi22.com/,completed,レジデンシ 22,80,2,39,FH,0,0,2,1,1,0,4
Residensi Sefina,19 Jalan Kiara 3 Mont Kiara 50480 KL,2019,245,1333,1771,4500,8500,749,813,3.17093,101.64956,UEM Sunrise,https://www.iproperty.com.my/building/residensi-sefina-mont-kiara-pty_65296/,https://www.uemsunrise.com/property/region/greater-kuala-lumpur/project/residensi-sefina,completed,レジデンシ・セフィナ,80,1,35,FH,0,1,1,1,0,1,5
Richmond Mont Kiara,Jalan Kiara 3 Mont Kiara 51200 KL,2014,96,1933,2419,3000,4000,350,400,3.17317,101.65089,Other,https://www.iproperty.com.my/building/richmond-pty_63479/,,completed,リッチモンド・モントキアラ,30,1,24,FH,0,0,0,0,0,0,0
Seni Mont Kiara,Changkat Duta Kiara Mont Kiara 50480 KL,2010,605,2437,3531,4500,16000,767,1266,3.17082,101.65963,UEM Sunrise,https://www.iproperty.com.my/building/seni-mont-kiara-pty_61358/,,completed,セニ・モントキアラ,80,4,40,FH,1,1,3,1,0,0,13
Solaris Dutamas (Publika),No 1 Jalan Dutamas 1 50480 KL,2009,800,672,1238,2500,6000,800,950,3.17108,101.66591,UEM Sunrise,https://www.iproperty.com.my/building/solaris-dutamas-pty_61861/,https://www.publika.com.my/,completed,ソラリス・ドゥタマス (プブリカ),80,3,24,FH,0,0,0,0,0,0,0
Solaris Parq,Jalan Changkat Hartamas 50480 KL,2022,576,721,1423,3500,9000,1023,1300,3.17375,101.66942,UEM Sunrise,https://www.iproperty.com.my/building/residensi-solaris-parq-pty_64658/,https://www.uemsunrise.com/property/region/greater-kuala-lumpur/project/residensi-solaris-parq,completed,ソラリス・パーク,80,2,41,FH,0,0,0,1,1,0,2
Sophia Mont Kiara,Jalan Kiara 1 Mont Kiara 50480 KL,1997,238,750,1386,3000,6000,650,700,3.17017,101.65414,UEM Sunrise,https://www.iproperty.com.my/building/mont-kiara-sophia-pty_65709/,,completed,ソフィア・モントキアラ,80,2,14,FH,0,0,0,0,0,0,0
Sunway Mont,16 Jalan Kiara 5 Mont Kiara 50480 KL,2020,288,1122,1906,4000,9000,770,950,3.16948,101.64641,Sunway Property,https://www.iproperty.com.my/building/sunway-mont-residences-pty_61889/,https://www.sunwaymontresidences.com/,completed,サンウェイ・モント,80,1,38,FH,0,0,0,1,1,0,2
Sunway Vivaldi,Jalan 19/70A Desa Sri Hartamas 50480 KL,2011,228,2573,4146,9000,20000,728,1017,3.16446,101.64610,Sunway Property,https://www.iproperty.com.my/building/sunway-vivaldi-pty_64635/,https://sunwayproperty.com/sunway-vivaldi/,completed,サンウェイ・ヴィヴァルディ,80,6,20,FH,1,0,3,1,0,0,11
Tiffani Kiara,No 1 Changkat Duta Kiara Mont Kiara 50480 KL,2009,399,815,3729,3000,12000,700,800,3.17341,101.65833,Ireka,https://www.iproperty.com.my/building/tiffani-by-i-zen-pty_63476/,,completed,ティファニ・キアラ,55,2,48,FH,0,0,0,0,0,0,0
TWY Mont Kiara,Jalan Duta Kiara Mont Kiara 50480 KL,2021,484,662,1385,2500,7000,829,1083,3.17456,101.65192,Symphony Life,https://www.iproperty.com.my/building/twy-duplex-condos-pty_62134/,https://www.twymontkiara.com/,completed,ティーダブリューワイ・モントキアラ,50,2,51,FH,0,0,0,1,1,0,2
Verve Suites Mont Kiara,8 Jalan Kiara 5 Mont Kiara 50480 KL,2013,881,462,1394,2000,6000,554,1299,3.16769,101.64605,Bukit Kiara Properties,https://www.iproperty.com.my/building/verve-suites-pty_65808/,https://www.bukitkiara.com/projects-vsmk,completed,ヴァーヴ・スイーツ・モントキアラ,80,4,33,FH,0,1,0,0,1,0,3
Vista Kiara,Jalan Kiara 3 Mont Kiara 50480 KL,1997,409,1230,1410,3000,4500,393,575,3.16688,101.64988,Other,https://www.iproperty.com.my/building/vista-kiara-pty_62310/,,completed,ビスタ・キアラ,30,2,27,FH,0,0,0,0,0,0,0
Bon Kiara,Jalan Kiara 3 Mont Kiara 50480 KL,2027,410,2081,3075,10000,25000,600,860,3.17368,101.65029,Bon Estates (Land Marker),https://www.iproperty.com.my/building/bon-kiara-pty_286669/,https://bonkiara.com/,upcoming,ボン・キアラ,55,2,43,FH,0,0,1,1,1,1,4
Pavilion Mont Kiara,Changkat Duta Kiara Mont Kiara 50480 KL,2027,341,1001,6049,5000,25000,871,1836,3.16960,101.65780,WCT Land (Pavilion Group),https://www.iproperty.com.my/building/pavilion-mont-kiara-pty_286933/,https://pavilionmontkiara.com/,upcoming,パビリオン・モントキアラ,75,2,26,FH,1,1,1,1,1,0,12
The Minh Mont Kiara,21 Jalan Kiara Mont Kiara 50480 KL,2027,496,1607,3010,5000,12000,784,960,3.17050,101.65850,UEM Sunrise,,https://www.uemsunrise.com/property/region/greater-kuala-lumpur/project/the-minh,upcoming,ザ・ミン・モントキアラ,80,2,42,FH,1,1,1,1,0,1,12
Kiaramas deDaun,Jalan Desa Kiara Mont Kiara 50480 KL,2028,661,1313,4693,5000,15000,844,918,3.16650,101.64250,Asia Quest,,https://kiaramasdedaun.com.my/,upcoming,キアラマス・デダウン,55,3,40,FH,1,0,1,1,1,1,11
Miranda Hill,Jalan Dutamas Melati Dutamas 51200 KL,2027,552,943,3584,3500,10000,678,759,3.18073,101.65486,BRDB,,https://www.mirandahill.com.my/,upcoming,ミランダ・ヒル,60,2,37,FH,0,0,1,1,0,0,2
Papyrus North Kiara,Jalan Dutamas Dahlia Dutamas 51200 KL,2028,454,1141,5523,3500,10000,635,800,3.17917,101.65660,Kerjaya Prospek,https://www.iproperty.com.my/building/papyrus-north-kiara-pty_288418/,https://papyrus.com.my/,upcoming,パピルス・ノースキアラ,55,2,38,FH,0,0,1,1,0,1,3
Nadia Parkfront,Persiaran Residen Desa ParkCity 52200 KL,2006,246,635,2669,2500,8000,763,1381,3.18959,101.62921,Perdana ParkCity,https://www.iproperty.com.my/building/nadia-parkfront-condominium-pty_64584/,,completed,ナディア・パークフロント,80,2,14,FH,0,0,0,0,0,0,0
One Central Park,Persiaran Residen Desa ParkCity 52200 KL,2017,359,1034,3153,5000,8800,1001,1670,3.18654,101.62605,Perdana ParkCity,,https://www.desaparkcity.com/onecentralpark.html,completed,ワン・セントラル・パーク,80,1,45,FH,0,0,1,1,1,0,3
The Northshore Gardens,Persiaran Residen Desa ParkCity 52200 KL,2010,274,904,6030,3000,9000,800,1100,3.18754,101.62629,Perdana ParkCity,,,completed,ザ・ノースショア・ガーデンズ,80,1,40,FH,0,0,0,0,0,0,0
The Westside One,Persiaran Residen Desa ParkCity 52200 KL,2013,338,969,2066,3500,7000,800,1050,3.18519,101.62336,Perdana ParkCity,https://www.iproperty.com.my/building/the-westside-one-pty_62110/,,completed,ザ・ウエストサイド・ワン,80,1,40,FH,0,0,0,0,0,0,0
The Westside Two,Persiaran Residen Desa ParkCity 52200 KL,2015,338,1389,1777,4500,7500,850,1100,3.18414,101.62336,Perdana ParkCity,https://www.iproperty.com.my/building/the-westside-two-pty_61505/,,completed,ザ・ウエストサイド・ツー,80,1,40,FH,0,0,0,0,0,0,0
Westside Three,Persiaran Residen Desa ParkCity 52200 KL,2019,469,1077,1927,4000,8000,850,1100,3.18397,101.62434,Perdana ParkCity,https://www.iproperty.com.my/building/westside-three-pty_60435/,,completed,ウエストサイド・スリー,80,1,47,FH,0,0,0,0,1,0,1
The Breezeway,Persiaran Residen Desa ParkCity 52200 KL,2014,130,1292,1851,4500,7500,900,1026,3.18462,101.63404,Perdana ParkCity,https://www.iproperty.com.my/building/the-breezeway-pty_65663/,,completed,ザ・ブリーズウェイ,80,1,12,FH,0,0,3,0,0,0,3
Sofiya Residensi,Persiaran Residen Desa ParkCity 52200 KL,2019,752,862,862,800,3000,600,800,3.18276,101.62446,Perdana ParkCity,https://www.iproperty.com.my/building/sofiya-residensi-pty_126000/,,completed,ソフィヤ・レジデンシ,80,1,51,FH,0,0,0,0,0,0,0
Park Regent,5 Persiaran Residen Desa ParkCity 52200 KL,2023,505,872,4887,5500,22000,1396,2729,3.18535,101.63075,ParkCity & CapitaLand,https://www.iproperty.com.my/building/park-regent-pty_61648/,http://parkregent.com.my/,completed,パーク・リージェント,85,2,53,FH,1,0,0,1,1,0,9
Park Place,5 Persiaran Residen Desa ParkCity 52200 KL,2024,537,1109,4047,7500,35000,1356,1945,3.18788,101.63295,Perdana ParkCity,https://www.iproperty.com.my/building/park-place-pty_68114/,https://parkplace.com.my/,completed,パーク・プレイス,80,1,54,FH,0,0,0,1,1,0,2
Noora,Persiaran Residen Desa ParkCity 52200 KL,2026,1156,550,1200,,,,,3.18197,101.63231,Perdana ParkCity,https://www.iproperty.com.my/building/noora-pty_286319/,,upcoming,ヌーラ,80,2,52,FH,0,0,0,0,0,0,0
South Brooks,Persiaran Residen Desa ParkCity 52200 KL,2021,920,876,1537,3000,6000,896,1013,3.18258,101.62593,Perdana ParkCity,https://www.iproperty.com.my/building/south-brooks-pty_61361/,,completed,サウス・ブルックス,80,2,40,FH,1,0,0,0,1,0,8
Plaza Arkadia,Jalan Intisari Perdana Desa ParkCity 52200 KL,2016,167,748,1100,2200,3500,800,1050,3.18629,101.63524,Perdana ParkCity,https://www.iproperty.com.my/building/plaza-arkadia-pty_65360/,https://plazaarkadia.com.my/,completed,プラザ・アルカディア,80,9,4,FH,0,0,0,0,0,0,0
Zenia Garden Condo,Persiaran Residen Desa ParkCity 52200 KL,2008,24,1087,1206,3500,5500,1192,1744,3.18426,101.62702,Perdana ParkCity,,,completed,ゼニア・ガーデン・コンド,80,1,3,FH,0,0,0,1,0,0,1
Bangsar Peak,Jalan Medang Kapas Bukit Bandaraya Bangsar 59100 KL,2009,39,1800,7000,8000,15000,800,1100,3.14003,101.66617,Beneton Properties,https://www.iproperty.com.my/building/bangsar-peak-pty_63040/,,completed,バンサー・ピーク,55,1,18,FH,1,0,3,1,0,0,11
Bangsar Puteri,Jalan Medang Serai Bangsar 59100 KL,1987,200,1066,1500,3500,6000,600,800,3.14227,101.66229,Bandar Raya Developments,https://www.iproperty.com.my/building/bangsar-puteri-pty_60678/,,completed,バンサー・プテリ,80,5,16,FH,0,0,0,0,0,0,0
Ken Bangsar,No 30 Jalan Kapas Bukit Bandaraya Bangsar 59100 KL,2009,80,2000,8500,3500,20000,697,1193,3.13905,101.66402,Ken Holdings,https://www.iproperty.com.my/building/ken-bangsar-pty_65534/,,completed,ケン・バンサー,75,1,15,FH,1,1,1,1,0,0,12
Nadi Bangsar,16 Jalan Tandok Bangsar 59100 KL,2017,416,441,1130,2000,5500,850,1100,3.12573,101.67527,Hap Seng Land,https://www.iproperty.com.my/building/nadi-bangsar-pty_63929/,,completed,ナディ・バンサー,75,1,38,FH,0,1,0,1,1,0,4
One Menerung,Jalan Menerung Bangsar 59100 KL,2009,229,3013,10291,8000,20000,1230,2007,3.14538,101.66579,Bandar Raya Developments,https://www.iproperty.com.my/building/one-menerung-pty_60584/,https://onemenerung.com/www/,completed,ワン・メネルン,80,6,28,FH,1,0,2,1,0,0,10
Serai,Bukit Bandaraya Bangsar 59100 KL,2016,121,4025,6913,17000,38000,1541,1936,3.14078,101.66093,Bandar Raya Developments,https://www.iproperty.com.my/building/serai-pty_61519/,https://www.brdb.com.my/portfolio/serai-bukit-bandaraya,completed,セライ,80,2,21,FH,1,1,3,1,0,0,13
Sri Penaga,Jalan Medang Serai Bangsar 59100 KL,1996,304,1050,3800,3500,12000,600,950,3.14175,101.66506,Bandar Raya Developments,https://www.iproperty.com.my/building/sri-penaga-pty_61927/,,completed,スリ・ペナガ,80,3,24,FH,0,0,0,0,0,0,0
Suasana Bangsar,Jalan Bangsar Utama Bangsar 59100 KL,2011,190,1112,4892,3000,7000,600,850,3.12331,101.67191,UM Land,https://www.iproperty.com.my/building/suasana-bangsar-pty_60799/,,completed,スアサナ・バンサー,50,1,25,FH,0,0,0,0,0,0,0
Bangsar Heights,Jalan Bangsar Utama Bangsar 59100 KL,1999,190,916,1300,2500,4500,700,900,3.12347,101.67092,Other,https://www.iproperty.com.my/building/bangsar-heights-pty_64969/,,completed,バンサー・ハイツ,30,1,4,FH,0,0,0,0,0,0,0
Gaya Bangsar,Jalan Maarof Bangsar 59100 KL,2010,285,662,1620,1800,4000,850,1100,3.12679,101.67689,Other,https://www.iproperty.com.my/building/gaya-bangsar-pty_63996/,,completed,ガヤ・バンサー,30,1,34,LH,0,0,0,0,0,0,0
Cascadium,Bukit Bandaraya Bangsar 59100 KL,1991,120,752,1500,3500,7000,800,1000,3.14115,101.66660,Other,https://www.iproperty.com.my/building/cascadium-pty_64924/,,completed,カスカディウム,30,1,12,FH,0,0,0,0,0,0,0
Menara Bangsar,Jalan Maarof Bangsar 59100 KL,1985,200,1000,2000,3000,6000,500,700,3.12634,101.67570,Other,https://www.iproperty.com.my/building/menara-bangsar-pty_61549/,,completed,メナラ・バンサー,30,2,24,FH,0,0,0,0,0,0,0
Inara,Bukit Bandaraya Bangsar 59100 KL,2006,22,3400,6000,10000,20000,800,1200,3.13956,101.66539,Other,https://www.iproperty.com.my/building/inara-pty_61933/,,completed,イナラ,30,3,8,FH,0,0,3,0,0,0,3
The Estate,1 Jalan Pantai Prima Bangsar South 59200 KL,2021,328,2346,7057,4500,13000,900,1200,3.11158,101.66077,Bon Estates,https://www.iproperty.com.my/building/the-estate-pty_65278/,,completed,ジ・エステート,55,2,46,FH,1,0,2,1,1,1,13
Bangsar Hill Park,Lorong Maarof Bangsar 59100 KL,2025,812,917,1478,3000,7000,900,1100,3.12918,101.67571,Other,https://www.iproperty.com.my/building/bangsar-hill-park-pty_66382/,,completed,バンサー・ヒルパーク,30,4,57,LH,1,0,0,0,0,1,8
Bangsar Indah,Lorong Maarof Bangsar 59100 KL,1987,140,800,1200,2500,4500,500,700,3.13984,101.67376,Other,https://www.iproperty.com.my/building/bangsar-indah-pty_62111/,,completed,バンサー・インダー,30,5,6,LH,0,0,0,0,0,0,0
Desa Bangsar Ria,Jalan Kapas Bukit Bandaraya Bangsar 59100 KL,1993,43,1808,2917,8000,15000,700,900,3.13960,101.66450,UOA Developments,https://www.iproperty.com.my/building/desa-bangsar-ria-pty_61793/,,completed,デサ・バンサー・リア,30,1,10,FH,0,0,0,1,0,0,1
Residensi 38 Bangsar,Jalan Bangsar Bangsar 59100 KL,2024,278,635,1442,2000,5500,1000,1200,3.12768,101.67697,UDA,,,completed,レジデンシ 38 バンサー,55,1,38,LH,0,0,0,0,1,0,1
The Loft Bangsar,Jalan Penaga Bukit Bandaraya Bangsar 59100 KL,2008,15,3349,4757,12000,25000,540,710,3.13683,101.66483,Mammoth Empire,https://www.iproperty.com.my/building/the-loft-bangsar-pty_66085/,,completed,ザ・ロフト・バンサー,50,1,7,FH,1,0,3,1,0,0,11
Casa Vista,Bukit Bandaraya Bangsar 59100 KL,2004,36,2200,3500,6000,12000,650,900,3.13850,101.66531,Other,https://www.iproperty.com.my/building/casa-vista-pty_64759/,,completed,カサ・ビスタ,30,3,10,FH,0,0,0,0,0,0,0
Sri Wangsaria,Jalan Bangsar Bangsar 59100 KL,1984,100,648,3800,2500,5000,400,600,3.13476,101.66497,Other,https://www.iproperty.com.my/building/sri-wangsaria-pty_64517/,,completed,スリ・ワンサリア,30,5,18,FH,0,0,0,0,0,0,0
Bangsar Villa,Bukit Bandaraya Bangsar 59100 KL,1995,48,1800,3000,5000,10000,550,750,3.14209,101.66601,Other,https://www.iproperty.com.my/building/bangsar-villa-pty_63864/,,completed,バンサー・ヴィラ,30,1,4,FH,0,0,0,0,0,0,0
Bangsar Aman,Jalan Limau Purut Taman Bandaraya Bangsar 59000 KL,1983,8,1380,1500,3000,6500,600,900,3.13728,101.67670,Bandar Raya Developments,https://www.iproperty.com.my/building/bangsar-aman-pty_61254/,,completed,バンサー・アマン,80,1,4,FH,0,0,3,1,0,0,4
Sri Bangsar,Jalan Bangsar Bangsar 59100 KL,1990,100,800,1200,2000,3500,500,650,3.14186,101.68692,Other,https://www.iproperty.com.my/building/sri-bangsar-pty_60796/,,completed,スリ・バンサー,30,1,12,FH,0,0,0,0,0,0,0
Araville,Jalan Kapas Bukit Bandaraya Bangsar 59100 KL,1993,60,1750,5000,4000,9000,550,800,3.13852,101.66435,SP Setia,,,completed,アラヴィル,70,2,12,FH,0,0,3,0,0,0,3
Palmyra Bangsar,Jalan Medang Tanduk Bukit Bandaraya Bangsar 59100 KL,2004,60,3434,4263,7000,15000,930,1150,3.13817,101.65987,Bandar Raya Developments,,https://palmyrabangsar.com/,completed,パルミラ・バンサー,80,7,6,FH,0,0,1,1,0,0,2
The Luxe,Jalan Kapas Bukit Bandaraya Bangsar 59100 KL,2012,18,2900,6800,10000,22000,900,1300,3.13605,101.67286,Mammoth Empire,,,completed,ザ・リュクス,50,1,15,FH,1,0,3,1,0,0,11
Tivoli Villas,Bukit Bandaraya Bangsar 59100 KL,1993,382,1087,4200,3500,8000,500,750,3.13924,101.66078,Other,,,completed,ティヴォリ・ヴィラス,30,5,9,FH,0,0,0,0,0,0,0
Bangsar Permai,Jalan Tandok Bangsar 59100 KL,1998,150,980,2700,2500,5500,433,597,3.12800,101.67300,Other,,,completed,バンサー・ペルマイ,30,5,6,FH,0,0,0,0,0,0,0
Sri Kasturina,Jalan Medang Kapas Bangsar 59100 KL,2000,30,1300,4800,5000,12000,600,850,3.13920,101.66350,Other,,,completed,スリ・カストゥリナ,30,1,8,FH,0,0,0,0,0,0,0
Villa Mutiara,Jalan Medang Tanduk Bangsar 59100 KL,1999,10,3000,3000,8000,15000,650,950,3.14050,101.66500,Other,,,completed,ヴィラ・ムティアラ,30,1,5,FH,0,0,3,0,0,0,3
One Eleven Menerung,Jalan Menerung Bangsar 59100 KL,2027,111,1001,3714,6000,18000,1628,2097,3.14500,101.66600,Bandar Raya Developments,https://www.iproperty.com.my/building/one-eleven-menerung-pty_286135/,https://brdb.com.my/portfolio/one-eleven-menerung,upcoming,ワン・イレブン・メネルン,80,1,23,FH,1,1,2,1,1,0,13
Bayu Angkasa,Jalan Tandok Bangsar 59100 KL,2005,232,1600,3380,3000,5500,600,800,3.13827,101.66322,Other,https://www.iproperty.com.my/building/bayu-angkasa-pty_63437/,,completed,バユ・アンカサ,30,3,14,FH,0,0,0,0,0,0,0
Zehn Bukit Pantai,Bukit Pantai Bangsar 59100 KL,2009,93,1900,3900,6000,15000,800,1200,3.13200,101.67000,Other,https://www.iproperty.com.my/building/zehn-bukit-pantai-pty_60552/,,completed,ゼン・ブキッパンタイ,30,2,25,LH,0,0,3,1,0,0,4
Alfa Bangsar,Jalan Maarof Bangsar 59100 KL,2025,178,570,997,1800,4000,850,1100,3.12634,101.67570,Other,https://www.iproperty.com.my/building/alfa-bangsar-pty_127678/,,completed,アルファ・バンサー,30,1,42,FH,0,0,0,0,1,0,1
Sri Bayu,Bukit Bandaraya Bangsar 59100 KL,1995,80,1458,1800,3000,6000,550,750,3.13681,101.66233,Other,https://www.iproperty.com.my/building/sri-bayu-pty_63502/,,completed,スリ・バユ,30,1,4,FH,0,0,0,0,0,0,0
Bangsar Trade Centre,Jalan Pantai Bangsar 59100 KL,2010,200,507,1178,1500,3500,500,700,3.12500,101.67200,Other,https://www.iproperty.com.my/building/bangsar-trade-centre-pantai-plaza-pty_64603/,,completed,バンサー・トレードセンター,30,6,17,FH,0,0,0,0,0,0,0
Saville @ The Park,Pantai Hillpark Bangsar 59100 KL,2015,408,1019,4612,2500,6000,500,750,3.10282,101.66196,MKH Berhad,,,completed,サヴィル・アット・ザ・パーク,50,2,27,FH,0,0,0,1,0,1,2
Pantai Hillpark 1,Jalan Pantai Murni Bangsar 59100 KL,1991,298,1182,1323,1500,3000,400,550,3.10629,101.66381,YTL Land,https://www.iproperty.com.my/building/pantai-hillpark-1-pty_64937/,,completed,パンタイ・ヒルパーク 1,60,17,18,LH,0,0,0,0,0,0,0
Pantai Hillpark 2,Jalan Pantai Murni Bangsar 59100 KL,1997,747,850,1228,1800,3500,400,550,3.10550,101.66450,YTL Land,https://www.iproperty.com.my/building/pantai-hillpark-2-pty_63785/,,completed,パンタイ・ヒルパーク 2,60,4,5,LH,0,0,0,0,0,0,0
The Lantern Bangsar,Jalan Bangsar Bangsar 59100 KL,2026,180,570,1092,3200,5500,745,1461,3.13069,101.67952,CDC Asset Management,,https://thelanternbangsar.com/,upcoming,ザ・ランタン・バンサー,40,1,34,FH,1,1,1,1,1,1,13
Khaya Residences,Jalan Bangsar Bangsar 59100 KL,2029,795,630,2300,3000,6000,743,1247,3.12700,101.67700,Bayu Mantap / TNB,,,upcoming,カヤ・レジデンシーズ,45,1,61,LH,0,0,0,1,1,0,2
Inwood Residences,Pantai Hillpark Bangsar 59100 KL,2019,211,1125,1965,2000,4500,600,850,3.10261,101.66371,Other,https://www.iproperty.com.my/building/inwood-residences-pty_65050/,,completed,インウッド・レジデンシーズ,30,1,38,LH,0,0,1,0,1,0,2
Vista Angkasa,Pantai Hillpark Bangsar 59100 KL,1998,504,1100,1100,1200,2500,350,500,3.11311,101.66122,Other,https://www.iproperty.com.my/building/vista-angkasa-pty_63559/,,completed,ビスタ・アンカサ,30,8,14,LH,0,0,0,0,0,0,0
Concerto North Kiara,Jalan Dutamas Raya North Kiara 51200 KL,2015,440,1707,2084,4000,8000,425,750,3.17871,101.65849,BCB Berhad,https://www.iproperty.com.my/building/concerto-north-kiara-pty_65807/,https://bcbbhd.com.my/Concerto-North-Kiara.php,completed,コンチェルト・ノースキアラ,50,3,27,FH,1,0,3,0,0,0,10
NK Residences,Jalan Dutamas Raya North Kiara 51200 KL,2018,200,1435,2540,4500,8000,550,800,3.17800,101.66000,Loh & Loh Development,https://www.iproperty.com.my/building/nk-residences-north-kiara-pty_63491/,,completed,エヌケー・レジデンシーズ,50,2,27,FH,1,0,2,0,0,0,9
Duta Ria,Jalan Dutamas Raya Dutamas 51200 KL,1995,252,1376,1700,2500,5000,289,406,3.17892,101.65494,Chalpeak,https://www.iproperty.com.my/building/duta-ria-pty_65355/,,completed,ドゥタ・リア,30,1,33,FH,0,0,0,0,0,0,0
Arte Solaris,Jalan Duta Kiara Solaris Mont Kiara 50480 KL,2026,603,477,2051,,,,,3.17442,101.65916,Arte Corp,https://www.iproperty.com.my/building/arte-solaris-pty_286258/,https://arte-solaris.com/,upcoming,アルテ・ソラリス,35,1,40,LH,0,0,0,0,1,0,1
Adora Courtyard Apartments,Persiaran Residen Desa ParkCity 52200 KL,2007,92,1109,2509,5500,7000,1263,1993,3.18900,101.62850,Perdana ParkCity,https://www.iproperty.com.my/building/adora-courtyard-apartments-pty_61438/,,completed,アドーラ・コートヤード,80,1,4,FH,0,0,3,1,0,0,4
Adiva Courtyard Apartments,Jalan Residen Desa ParkCity 52200 KL,2006,144,1087,2487,3700,7000,1633,1924,3.18856,101.62776,Perdana ParkCity,https://www.iproperty.com.my/building/adiva-courtyard-pty_63469/,,completed,アディヴァ・コートヤード,80,6,3,FH,0,0,3,1,0,0,4
Menara Duta 1,Jalan Dutamas Raya Dutamas 52100 KL,1997,341,1491,2850,2300,6400,320,436,3.17950,101.65600,MBF Property,https://www.iproperty.com.my/building/menara-duta-1-pty_60647/,,completed,メナラ・ドゥタ 1,30,1,13,LH,0,0,0,0,0,0,0
Menara Duta 2,Jalan Dutamas Raya Dutamas 52100 KL,1999,200,1400,2804,2000,5500,300,400,3.17980,101.65550,Other,https://www.iproperty.com.my/building/menara-duta-2-pty_61314/,,completed,メナラ・ドゥタ 2,30,1,16,LH,0,0,0,0,0,0,0
Prima Duta,Jalan Dutamas Raya Dutamas 52100 KL,2000,348,1476,1614,2000,4500,250,400,3.17978,101.65962,Bertam Alliance,https://www.iproperty.com.my/building/prima-duta-pty_61790/,,completed,プリマ・ドゥタ,30,4,15,LH,0,0,0,0,0,0,0
Menara Hartamas,Sri Hartamas 50480 KL,2005,136,1560,3250,3500,7000,450,600,3.16168,101.65495,Mayland,https://www.iproperty.com.my/building/menara-hartamas-pty_65868/,,completed,メナラ・ハルタマス,40,1,10,FH,0,0,0,0,0,0,0
Sutramas,3 Jalan Dutamas Melati Dutamas 51200 KL,2007,178,1356,2598,2500,5000,350,500,3.18113,101.65502,See Hoy Chan,https://www.iproperty.com.my/building/sutramas-luxury-condominium-pty_65034/,,completed,スートラマス,50,1,20,FH,0,0,0,0,0,0,0
Changkat View,Jalan Dutamas Raya Dutamas 51200 KL,2009,796,1100,2150,1600,3500,300,450,3.17819,101.65949,Plenitude,https://www.iproperty.com.my/building/changkat-view-pty_65282/,,completed,チャンカット・ビュー,45,4,26,FH,0,0,0,0,0,0,0
Matahari Super Condos,Sri Hartamas Mont Kiara 50480 KL,2010,158,494,3041,8000,18000,700,900,3.16300,101.65700,Maymont,https://www.iproperty.com.my/building/matahari-luxury-super-condos-pty_63599/,,completed,マタハリ・スーパーコンド,40,2,20,FH,0,0,3,0,0,0,3
Rosvilla,Bukit Prima Pelangi Segambut 51200 KL,2010,174,1203,2468,2000,4000,350,500,3.17913,101.64695,BREM Group,https://www.iproperty.com.my/building/rosvilla-condominium-pty_64327/,,completed,ロスヴィラ,40,3,15,FH,0,0,0,0,0,0,0
Anjali North Kiara,Jalan 3/61 Segambut 51200 KL,2018,395,1306,6501,3000,8000,377,923,3.18375,101.65266,Tago,https://www.iproperty.com.my/building/anjali-north-kiara-pty_62199/,,completed,アンジャリ・ノースキアラ,40,6,30,FH,1,0,0,1,0,0,8
28 Dutamas,Jalan Dutamas Raya Dutamas 51200 KL,2017,250,1253,2590,2500,5500,450,650,3.17907,101.65569,BTHomestead,https://www.iproperty.com.my/building/28-dutamas-pty_62607/,,completed,28 ドゥタマス,40,2,23,FH,0,0,0,0,0,0,0
ALIX Residences,Jalan Dutamas Raya Dutamas 52100 KL,2024,364,1012,6544,2300,15000,631,939,3.17850,101.65650,TA Global,https://www.iproperty.com.my/building/alix-residences-pty_64200/,https://taglobal.com.my/alix-residences/,completed,アリックス・レジデンシーズ,55,2,36,FH,0,0,1,1,1,0,3
Savio Riana Dutamas,Segambut 51200 KL,2021,1018,653,1177,1800,3500,500,600,3.18480,101.66850,IJM Land,https://www.iproperty.com.my/building/savio-riana-dutamas-pty_61042/,,completed,サヴィオ・リアナ・ドゥタマス,65,2,38,FH,0,0,0,0,0,0,0
Savvy Riana Dutamas,Segambut 51200 KL,2024,921,722,1232,2000,4000,500,650,3.18516,101.66742,IJM Land,https://www.iproperty.com.my/building/savvy-riana-dutamas-pty_120782/,,completed,サヴィー・リアナ・ドゥタマス,65,2,40,FH,0,0,0,0,0,0,0
Solasta Dutamas,Jalan Dutamas 5 Dutamas 51200 KL,2026,1159,720,900,,,,,3.18517,101.66357,YNH Property,https://www.iproperty.com.my/building/solasta-dutamas-pty_129249/,,upcoming,ソラスタ・ドゥタマス,45,3,42,LH,0,0,0,0,1,0,1
Anggun Puri,Dutamas Segambut 51200 KL,2008,246,850,1900,1500,2500,300,450,3.17900,101.65400,BT Homestead,,,completed,アングン・プリ,40,1,22,FH,0,0,0,0,0,0,0
One Kiara,Jalan Kiara 5 Mont Kiara 50480 KL,2013,226,2174,21775,6000,18000,700,850,3.16700,101.64550,Monday-Off Development,https://www.iproperty.com.my/building/one-kiara-pty_66160/,,completed,ワン・キアラ,30,2,41,FH,1,0,2,1,1,0,11
Sun Kiara,Jalan Kiara 5 Mont Kiara 50480 KL,2002,221,2450,4000,5000,10000,500,700,3.16650,101.64500,Other,https://www.iproperty.com.my/building/sun-kiara-pty_62301/,,completed,サン・キアラ,30,2,35,FH,0,0,1,0,1,0,2
Scenaria North Kiara,Jalan 6/38a Segambut 51200 KL,2016,937,1019,1300,1150,3200,425,854,3.18235,101.65122,UOA Development,https://www.iproperty.com.my/building/scenaria-north-kiara-hills-pty_64581/,,completed,シナリア・ノースキアラ,60,2,36,FH,0,0,0,1,0,0,1
Kiara Kasih,25 Jalan Duta Kiara Mont Kiara 51200 KL,2022,719,850,850,950,2500,300,400,3.17400,101.65600,UEM Sunrise,https://www.iproperty.com.my/building/kiara-kasih-pty_286338/,,completed,キアラ・カシ,80,1,39,LH,0,0,0,0,0,0,0
Sunway Palazzio,1 Jalan Sri Hartamas 3 Sri Hartamas 50480 KL,2010,160,2507,9903,10000,18000,828,914,3.15467,101.64740,Sunway Property,https://www.iproperty.com.my/building/sunway-palazzio-pty_63993/,https://sunwayproperty.com/sunway-palazzio/,completed,サンウェイ・パラッツィオ,80,2,40,FH,1,1,2,1,0,0,12
Jendela Residences @ KLGCC Resort,2A Jalan Bukit Kiara 1 Bukit Kiara 60000 KL,2026,520,1324,2260,5000,10000,1100,1800,3.14195,101.63422,Sime Darby Property,https://www.iproperty.com.my/building/jendela-residences-pty_120757/,https://www.simedarbyproperty.com/klgcc-resort/jendela-residences,upcoming,ジェンデラ・レジデンス＠KLGCCリゾート,80,2,41,LH,1,1,1,1,1,1,13
Senada Residences @ KLGCC Resort,1 Jalan Bukit Kiara 1 Bukit Kiara 60000 KL,2021,429,710,958,3000,5500,1300,1642,3.13863,101.64850,Sime Darby Property,https://www.iproperty.com.my/building/senada-residence-klgcc-resort-pty_61618/,https://www.simedarbyproperty.com/klgcc-resort/senadaresidences,completed,セナダ・レジデンス＠KLGCCリゾート,80,2,22,LH,0,0,0,1,0,0,1
East Residence @ KLGCC Resort,2A Jalan Bukit Kiara 1 Bukit Kiara 60000 KL,2016,112,3929,5400,17000,35000,955,1458,3.14190,101.64430,Sime Darby Property,https://www.iproperty.com.my/new-property/property/bukit-kiara/klgcc-resort-east-residence-villa/new-5722/,https://www.simedarbyproperty.com/klgcc-resort/east-residence,completed,イースト・レジデンス���KLGCCリゾート,80,1,4,LH,1,1,2,1,0,0,12
The Ophera @ KLGCC Resort,2A Jalan Bukit Kiara 1 Bukit Kiara 60000 KL,2028,150,3078,7524,15000,35000,1286,1679,3.14396,101.63876,Sime Darby Property,,https://www.simedarbyproperty.com/klgcc-resort/theophera/,upcoming,ジ・オペラ＠KLGCCリゾート,80,3,17,LH,1,1,2,1,0,0,12
The Binjai On The Park,Persiaran KLCC 50088 KL,2008,171,2228,7200,15000,30000,1616,3236,3.15470,101.71770,KLCC Property Holdings,https://www.iproperty.com.my/building/the-binjai-on-the-park-pty_61299/,,completed,ザ・ビンジャイ・オン・ザ・パーク,85,2,45,FH,1,1,2,1,0,0,12
The Oval KLCC,Lorong Kuda Off Jalan Tun Razak KLCC 50450 KL,2009,140,3750,7600,15000,29000,962,3038,3.15680,101.71800,GuocoLand (Hong Leong Group),https://www.iproperty.com.my/building/the-oval-pty_62089/,https://www.theoval.com.my/,completed,ザ��オーバル KLCC,80,2,41,FH,1,1,2,1,0,0,12
Le Nouvel KLCC,152 Jalan Ampang KLCC 50450 KL,2016,195,1722,5791,6000,14000,2133,3456,3.15953,101.71250,Wing Tai Malaysia,https://www.iproperty.com.my/building/le-nouvel-pty_65896/,https://www.lnklcc.com/,completed,ル・ヌーヴェル KLCC,75,2,49,FH,1,1,3,1,1,0,14
Suria Stonor,Lorong Stonor KLCC 50450 KL,2008,138,3282,8604,8000,20000,548,1247,3.15400,101.71950,Glomac Bhd,https://www.iproperty.com.my/building/suria-stonor-pty_65976/,,completed,スリア・ストーナー,60,2,23,FH,1,0,2,1,0,0,10
The Avare KLCC,Lorong Kuda Off Jalan Tun Razak KLCC 50450 KL,2009,78,3800,7600,8500,22000,811,1250,3.15650,101.71850,Magna Prima,https://www.iproperty.com.my/building/the-avare-pty_60930/,,completed,ジ・アヴェア KLCC,40,2,41,FH,1,1,3,1,0,0,13
Cendana,Jalan Sultan Ismail KLCC 50250 KL,2008,152,2195,7986,9000,20000,571,2089,3.16124,101.69411,Tan & Tan (IGB),https://www.iproperty.com.my/building/cendana-pty_61625/,,completed,センダナ,80,1,45,FH,0,1,2,1,0,0,5
Dedaun,195 Jalan Ampang Taman U-Thant 55000 KL,2013,38,3240,7128,12000,14500,832,1403,3.15857,101.72364,Selangor Dredging Bhd (SDB),https://www.iproperty.com.my/building/dedaun-condominium-pty_65109/,,completed,デダウン,60,2,10,FH,1,0,3,1,0,0,11
U-Thant Residence,Jalan Madge Taman U-Thant 55000 KL,2009,77,2467,6803,7300,14000,990,1457,3.15729,101.72615,Tan & Tan (IGB),https://www.iproperty.com.my/building/u-thant-residence-pty_63923/,,completed,ユーサント・レジデンス,80,3,10,FH,0,0,3,1,0,0,4
Gallery U-Thant,Jalan Ampang Hilir Taman U-Thant 55000 KL,2010,50,3208,6576,11000,17000,731,1793,3.15785,101.72750,Prinaissance,https://www.iproperty.com.my/building/gallery-u-thant-pty_61463/,,completed,ギャラリー・ユーサント,40,2,10,FH,1,1,3,1,0,0,13
Rimbun Embassy Row,Jalan Ampang Hilir 55000 KL,2015,56,3551,4412,14000,20000,1065,1830,3.15822,101.73846,Amphil Corp,https://www.iproperty.com.my/building/rimbun-pty_65650/,https://rimbunkl.com/,completed,リンブン・エンバシーロウ,50,1,17,FH,1,1,3,1,0,0,13
Seri Ampang Hilir,20 Jalan Ampang Hilir Taman U-Thant 55000 KL,2013,40,2229,5188,7500,12000,804,1106,3.15920,101.73280,Tan & Tan (IGB),https://www.iproperty.com.my/building/seri-ampang-hilir-residences-pty_65560/,https://www.tantan.com/project/seri-ampang-hilir/,completed,セリ・アンパン・ヒリル,80,1,10,FH,1,0,3,1,0,0,11
Residensi R8,6 Jalan Ampang Hilir Taman U-Thant 55000 KL,2023,26,2725,5118,12000,18000,1100,1413,3.15980,101.73150,Revival Capital,https://www.iproperty.com.my/building/residensi-r-8-pty_285916/,,completed,レジデンシ R8,40,1,20,FH,1,0,3,1,0,0,11
3 Kia Peng,3 Jalan Kia Peng KLCC 50450 KL,2010,138,2960,5662,8000,18000,706,1299,3.15120,101.71450,Hong Leong Group,https://www.iproperty.com.my/building/3-kia-peng-pty_60430/,https://3kiapeng.com/,completed,3キアペン,75,1,28,FH,0,0,2,1,0,0,3
Four Seasons Place,145 Jalan Ampang KLCC 50450 KL,2018,242,1098,11894,9000,45000,2500,3300,3.15530,101.71520,Venus Assets,https://www.iproperty.com.my/building/four-seasons-place-pty_62774/,https://www.fourseasons.com/residences/private_residences/kualalumpur/,completed,フォーシーズンズ・プレイス KL,60,1,74,FH,1,1,0,1,0,1,12
Banyan Tree Signatures Pavilion KL,Jalan Conlay Bukit Bintang 55100 KL,2016,542,1076,2195,8000,18000,1800,2500,3.14870,101.71340,Pavilion Group,https://www.iproperty.com.my/building/banyan-tree-signatures-pty_64375/,https://1pavilion.com/index.php/en/banyan-tree-signature/,completed,バンヤンツリー・シグネチャーズ・パビリオン KL,100,1,59,FH,0,1,0,1,1,1,5
Ritz-Carlton Residences KL,105 Jalan Ampang KLCC 50450 KL,2017,288,1023,4284,8500,55000,1500,3300,3.15636,101.70563,Berjaya Corp,https://www.iproperty.com.my/building/the-ritz-carlton-residences-pty_64579/,https://rcr-kl.com/,completed,ザ・リッツカールトン・レジデンシズ KL,60,1,48,FH,1,1,1,1,1,1,13
St Regis Residences KL,No 6 Jalan Stesen Sentral 2 KL Sentral 50470 KL,2015,208,766,4253,5000,38000,1800,2720,3.13440,101.68630,MRCB,https://www.iproperty.com.my/building/st-regis-pty_64949/,https://www.stregisklresidences.com/,completed,セントレジス・レジデンシズ KL,60,1,48,FH,0,1,0,1,0,0,3
8 Conlay (YOO8),Jalan Conlay KLCC 50450 KL,2024,1062,705,1328,5000,15000,2700,3300,3.14820,101.71590,KSK Land,https://www.iproperty.com.my/building/yoo-8-residences-8-conlay-pty_62263/,https://8conlay.com/,upcoming,エイトコンレイ (YOO8),50,2,61,FH,0,1,0,1,1,0,4
Marc Residences KLCC,No 3 Jalan Pinang KLCC 50450 KL,2007,637,463,6049,2600,16000,495,1533,3.15480,101.71680,Beverly Group,https://www.iproperty.com.my/building/marc-residence-pty_63240/,,completed,マーク・レジデンス KLCC,40,2,35,FH,1,1,0,1,0,0,12
Stonor 3,Persiaran Stonor KLCC 50450 KL,2019,400,649,1232,3500,8000,1290,1837,3.15340,101.71850,Tan & Tan / Mitsubishi Jisho,https://www.iproperty.com.my/building/stonor-3-pty_63053/,https://www.kl-stonor3.com/,completed,ストーナー3,70,1,41,FH,0,1,0,1,1,1,5
One KL,No 1 Jalan Pinang KLCC 50450 KL,2009,94,3285,3750,12500,20000,972,1979,3.15570,101.71060,CMY Capital,https://www.iproperty.com.my/building/one-kl-pty_63166/,https://www.onekl.com.my/,completed,ワン KL,60,1,35,FH,1,1,3,1,0,0,13
Clearwater Residences,Changkat Semantan Damansara Heights 50490 KL,2011,108,826,4735,3600,11000,833,1150,3.15550,101.67750,Clearwater Development,https://www.iproperty.com.my/building/clearwater-residences-pty_61958/,https://theclearwatergroup.com/property/clearwater-residence/,completed,クリアウォーター・レジデンシズ,40,1,18,FH,0,1,2,1,0,0,5
Pavilion Suites KL,Jalan Bukit Bintang 55100 KL,2018,383,718,1254,4000,18000,3000,3500,3.14890,101.71310,Pavilion Group,https://www.iproperty.com.my/building/pavilion-suites-pty_64216/,https://pavilion-suites.com/,completed,パビリオン・スイーツ KL,100,1,51,FH,0,1,1,1,1,0,6
AIRA Residence,No 8 Jalan Batai Damansara Heights 50490 KL,2019,105,2679,7730,13000,42000,1698,2523,3.15350,101.65800,Selangor Properties,https://www.iproperty.com.my/building/aira-residence-pty_63636/,https://www.airaresidence.com/,completed,アイラ・レジデンス,60,2,17,FH,1,1,2,1,1,1,14
The Peak,Damansara Heights 50490 KL,2025,54,3455,4500,15000,30000,2046,2600,3.15787,101.66275,E&O / Mitsui Fudosan,https://www.iproperty.com.my/building/the-peak-pty_289978/,https://www.easternandoriental.com/thepeak/,completed,ザ・ピーク,80,18,3,FH,1,1,3,1,0,1,14
The Cedar,Jalan Setiakasih Damansara Heights 50490 KL,2026,70,2782,16205,20000,60000,1738,2092,3.15150,101.64800,Satin Magic,https://www.iproperty.com.my/building/the-cedar-pty_287669/,https://thecedar.my/,upcoming,ザ・シダー,40,1,6,FH,1,0,3,1,1,1,13
Pavilion Damansara Heights (Crown),3 Jalan Damanlela Damansara Heights 50490 KL,2022,165,2303,2803,7800,35000,1391,2283,3.14820,101.66068,Pavilion Group,https://www.iproperty.com.my/building/pavilion-pty_62124/,https://paviliondamansaraheights.com/crown-residences/,completed,パビリオン・ダマンサラハイツ (クラウン),100,1,50,FH,1,1,2,1,1,1,14
Southpoint Residences,Lingkaran Syed Putra Mid Valley City 59200 KL,2023,172,1116,5837,7000,24000,1400,1700,3.11780,101.67730,Tan & Tan (IGB),https://www.iproperty.com.my/rent/mid-valley-city/southpoint/all-residential/,https://southpointresidences.com/,completed,サウスポイント・レジデンシズ,80,1,59,LH,1,0,1,1,0,0,9
Setia Sky Seputeh,No 7 Jalan Taman Seputeh 58000 KL,2023,290,2303,3025,12000,18000,980,1458,3.11830,101.68020,SP Setia,https://www.iproperty.com.my/building/setia-sky-seputeh-pty_62878/,https://spsetia.com/property/setia-sky-seputeh/,completed,セティア・スカイ・セプテ,85,2,37,FH,1,0,1,1,1,1,11
Aetas Seputeh,Persiaran Syed Putra 2 Taman Persiaran Desa 50460 KL,2028,126,3531,14869,,,,,3.12523,101.68937,Avaland,https://www.iproperty.com.my/building/aetas-seputeh-pty_289595/,https://aetasseputeh.my/,upcoming,アエタス・セプテー,55,2,46,FH,1,1,3,1,0,1,14
